[{"name": "Flensburger Arbeiter-Bauverein eG", "telephone": "0461 9 09 02-0", "address": {"addressLocality": "Flensburg", "addressRegion": "SH", "postalCode": "24941", "streetAddress": "Husumer Str. 314"}, "geo": {"longitude": 9.401197786648392, "latitude": 54.755233758163314}, "mailAddress": "fabeg@fab.sh", "website": "www.fab.sh"}, {"name": "JHO Hausverwaltung", "telephone": "04608 9 72 29 13", "address": {"addressLocality": "Handewitt", "addressRegion": "SH", "postalCode": "24983", "streetAddress": "Frösleer Bogen 15 a"}, "geo": {"longitude": 9.322081172363188, "latitude": 54.769486537109465}, "mailAddress": "info@j-h-o.de", "website": "http://www.j-h-o.de"}, {"name": "AKI Verwaltungsgesellschaft mbH & Co. KG Haus- und Grundstücksverwaltungen", "telephone": "0461 3 18 31 90", "address": {"addressLocality": "Flensburg", "addressRegion": "SH", "postalCode": "24937", "streetAddress": "Norderhofenden 5"}, "geo": {"longitude": 9.43573678528668, "latitude": 54.787602959731494}, "mailAddress": "info@ak-immobilien.com", "website": "www.ak-immobilien.com"}, {"name": "Brink & Fürst Haus- und Grundstücksverwaltung GmbH", "telephone": "0461 1 44 50 40", "address": {"addressLocality": "Flensburg", "addressRegion": "SH", "postalCode": "24939", "streetAddress": "Nerongsallee 12"}, "geo": {"longitude": 9.419327565848683, "latitude": 54.789223632212234}, "mailAddress": "", "website": ""}, {"name": "Duburger Hausverwaltung GmbH", "telephone": "0461 90 01 99 46", "address": {"addressLocality": "Flensburg", "addressRegion": "SH", "postalCode": "24939", "streetAddress": "Norderallee 9"}, "geo": {"longitude": 9.416036704965785, "latitude": 54.79464311946091}, "mailAddress": "", "website": ""}, {"name": "Flensburger Immobilien Service Hausverwalterservice", "telephone": "0461 3 93 03", "address": {"addressLocality": "", "addressRegion": "SH", "postalCode": "", "streetAddress": " "}, "geo": {"longitude": 10.498716729540307, "latitude": 50.99874035711943}, "mailAddress": "", "website": ""}, {"name": "Flenservice Mario Grudda Haus- und Gartenservice", "telephone": "0461 5 05 13 78", "address": {"addressLocality": "Flensburg", "addressRegion": "SH", "postalCode": "24944", "streetAddress": "Kiefernweg 66"}, "geo": {"longitude": 9.481349148755157, "latitude": 54.810806780996785}, "mailAddress": "info@flenservice.de", "website": "www.flenservice.de"}, {"name": "Hausverwaltung Andersen", "telephone": "0461 9 71 96", "address": {"addressLocality": "Flensburg", "addressRegion": "SH", "postalCode": "24941", "streetAddress": "Fuchskuhle 45"}, "geo": {"longitude": 9.430267347673428, "latitude": 54.764285961169335}, "mailAddress": "hausverwaltung.andersen@gmail.com", "website": "www.hausverwaltung-andersen.de"}, {"name": "Hausverwaltung Brau Gerda", "telephone": "0461 5 05 69 02", "address": {"addressLocality": "Flensburg", "addressRegion": "SH", "postalCode": "24939", "streetAddress": "Alter Kupfermühlenweg 111"}, "geo": {"longitude": 9.41583036257059, "latitude": 54.81307456197231}, "mailAddress": "hausverwaltung-brau@gmx.de", "website": ""}, {"name": "Hausverwaltung Corinna Szech", "telephone": "0461 1 68 20 16", "address": {"addressLocality": "Flensburg", "addressRegion": "SH", "postalCode": "24937", "streetAddress": "St.-Jürgen-Str. 77"}, "geo": {"longitude": 9.440209631697472, "latitude": 54.7907005754447}, "mailAddress": "info@corinna-szech.de", "website": "www.corinna-szech.de"}, {"name": "Hausverwaltung Immobilien-Service Brand", "telephone": "0461 5 00 25 90", "address": {"addressLocality": "", "addressRegion": "SH", "postalCode": "", "streetAddress": " "}, "geo": {"longitude": 10.498716729540307, "latitude": 50.99874035711943}, "mailAddress": "", "website": ""}, {"name": "Hausverwaltung Ohm & Meyer", "telephone": "0461 8 40 31-0", "address": {"addressLocality": "Flensburg", "addressRegion": "SH", "postalCode": "24939", "streetAddress": "Schiffbrücke 66"}, "geo": {"longitude": 9.431344339484438, "latitude": 54.795535417800416}, "mailAddress": "kontakt@ohm-meyer.de", "website": "www.ohm-meyer.de"}, {"name": "Hausverwaltungen Wilhelm Clausen Inh. H. Pauls e.K. Haus- und Grundstücksverwaltungen", "telephone": "0461 1 77 21", "address": {"addressLocality": "Flensburg", "addressRegion": "SH", "postalCode": "24937", "streetAddress": "Niedermai 9"}, "geo": {"longitude": 9.43639595139171, "latitude": 54.779881432707974}, "mailAddress": "info@hv-clausen.de", "website": "www.hv-clausen.de"}, {"name": "HGV Haus- und Grundstücksverwaltungsgesellschaft mbH Densch & Schmidt", "telephone": "0461 5 03 08-0", "address": {"addressLocality": "Flensburg", "addressRegion": "SH", "postalCode": "24937", "streetAddress": "Friesische Str. 62"}, "geo": {"longitude": 9.42724459909396, "latitude": 54.78135718064233}, "mailAddress": "info@hgv-flensburg.de", "website": "www.hgv-flensburg.de"}, {"name": "Hope Nordpassagen GmbH & Co. KG", "telephone": "0461 18 18 58", "address": {"addressLocality": "Flensburg", "addressRegion": "SH", "postalCode": "24939", "streetAddress": "Schiffbrücke 50"}, "geo": {"longitude": 9.432592801956917, "latitude": 54.79406512506087}, "mailAddress": "info@hope-nord.de", "website": "www.hope-nord.de"}, {"name": "ISOR Haus- und Grundstücksverwaltung", "telephone": "0461 5 05 85 53", "address": {"addressLocality": "Flensburg", "addressRegion": "SH", "postalCode": "24937", "streetAddress": "Friesische Str. 82"}, "geo": {"longitude": 9.424775090667667, "latitude": 54.7807709344238}, "mailAddress": "info@isor-hgv.de", "website": "www.isor-hgv.de"}, {"name": "Jensen Kai Hausverwaltung", "telephone": "0461 5 70 08 95", "address": {"addressLocality": "Flensburg", "addressRegion": "SH", "postalCode": "24939", "streetAddress": "Amselstr. 10"}, "geo": {"longitude": 9.422154607872308, "latitude": 54.79838355337433}, "mailAddress": "", "website": ""}, {"name": "Richter Hausverwaltung", "telephone": "0461 1 82 84 95", "address": {"addressLocality": "Flensburg", "addressRegion": "SH", "postalCode": "24937", "streetAddress": "Heinrichstr. 11"}, "geo": {"longitude": 9.442461459862736, "latitude": 54.78196922020395}, "mailAddress": "", "website": ""}, {"name": "S/Facility Inh. Lars Schulte Immobilienverwaltung", "telephone": "0461 67 42 10 40", "address": {"addressLocality": "Flensburg", "addressRegion": "SH", "postalCode": "24943", "streetAddress": "Trögelsbyer Weg 54"}, "geo": {"longitude": 9.472567450098051, "latitude": 54.78909033741633}, "website": "https://www.betreuung-im-apfelhof.de", "mailAddress": ""}, {"name": "Siegfried Sindram Hausverwaltung", "telephone": "0461 50 50 85 94", "address": {"addressLocality": "", "addressRegion": "SH", "postalCode": "", "streetAddress": " "}, "geo": {"longitude": 10.498716729540307, "latitude": 50.99874035711943}, "mailAddress": "", "website": ""}, {"name": "upmax immobilien Hausverwaltung", "telephone": "0461 16 02 60-0", "address": {"addressLocality": "Flensburg", "addressRegion": "SH", "postalCode": "24944", "streetAddress": "Fördestr. 65"}, "geo": {"longitude": 9.472010325378163, "latitude": 54.816609732010384}, "mailAddress": "info@upmax.de", "website": "www.upmax.de"}, {"name": "Bundesanstalt für Immobilien- aufgaben", "telephone": "0461 49 43-0", "address": {"addressLocality": "Flensburg", "addressRegion": "SH", "postalCode": "24941", "streetAddress": "Eckernförder Landstr. 65"}, "geo": {"longitude": 9.443298926841829, "latitude": 54.76827199178758}, "mailAddress": "info@bundesimmobilien.de", "website": "www.bundesimmobilien.de"}, {"name": "Carsten Johannsen Immobilienmakler GmbH", "telephone": "0461 57 08 20", "address": {"addressLocality": "Flensburg", "addressRegion": "SH", "postalCode": "24937", "streetAddress": "Moltkestr. 16"}, "geo": {"longitude": 9.422965633162423, "latitude": 54.787226251987526}, "mailAddress": "info@johannsen-immobilien.de", "website": "www.johannsen-immobilien.de"}, {"name": "Densch & Schmidt GmbH Immobilienmakler", "telephone": "0461 3 18 04-0", "address": {"addressLocality": "Flensburg", "addressRegion": "SH", "postalCode": "24944", "streetAddress": "Am Fördeufer 4"}, "geo": {"longitude": 9.453987408912141, "latitude": 54.80764136619971}, "mailAddress": "flensburg@densch-schmidt.de", "website": "www.densch-schmidt.de"}, {"name": "Haus & Grund Flensburg Grundstücksvermietung", "telephone": "0461 1 44 24-0", "address": {"addressLocality": "Flensburg", "addressRegion": "SH", "postalCode": "24939", "streetAddress": "Marienhölzungsweg 11"}, "geo": {"longitude": 9.424261418504795, "latitude": 54.78940903474973}, "mailAddress": "info@haus-und-grund-fl.de", "website": "www.haus-und-grund-fl.de"}]